[{"item":"Ammonia","color":"#8c6a9b","flights":[{"title":"Russia","latitude":61.52401,"longitude":105.318756,"destinations":[{"item":"West Europe","width":1394,"template":{},"series":{},"latitude":55.378051,"longitude":-3.435973},{"item":"USA","width":0,"template":{},"series":{},"latitude":37.09024,"longitude":-95.712891},{"item":"Tunisia","width":174,"template":{},"series":{},"latitude":33.886917,"longitude":9.537499},{"item":"Morocco","width":592,"template":{},"series":{},"latitude":31.791702,"longitude":-7.09262},{"item":"Turkey","width":344,"template":{},"series":{},"latitude":38.963745,"longitude":35.243322},{"item":"India","width":296,"template":{},"series":{},"latitude":20.593684,"longitude":78.96288}]},{"title":"Ukraine","latitude":48.379433,"longitude":31.16558,"destinations":[{"item":"West Europe","width":0,"template":{},"series":{},"latitude":55.378051,"longitude":-3.435973},{"item":"Turkey","width":0,"template":{},"series":{},"latitude":38.963745,"longitude":35.243322}]},{"title":"Canada","latitude":56.130366,"longitude":-106.346771,"destinations":[{"item":"USA","width":1038,"template":{},"series":{},"latitude":37.09024,"longitude":-95.712891}]},{"title":"USA","latitude":37.09024,"longitude":-95.712891,"destinations":[{"item":"Morocco","width":286,"template":{},"series":{},"latitude":31.791702,"longitude":-7.09262}]},{"title":"Trinidad and Tobago","latitude":10.691803,"longitude":-61.222503,"destinations":[{"item":"USA","width":2500,"template":{},"series":{},"latitude":37.09024,"longitude":-95.712891},{"item":"Brazil","width":287,"template":{},"series":{},"latitude":-14.235004,"longitude":-51.92528},{"item":"Morocco","width":533,"template":{},"series":{},"latitude":31.791702,"longitude":-7.09262}]},{"title":"Venezuela","latitude":6.42375,"longitude":-66.58973,"destinations":[{"item":"USA","width":152,"template":{},"series":{},"latitude":37.09024,"longitude":-95.712891}]},{"title":"Algeria","latitude":28.033886,"longitude":1.659626,"destinations":[{"item":"West Europe","width":1046,"template":{},"series":{},"latitude":55.378051,"longitude":-3.435973}]},{"title":"Qatar","latitude":25.354826,"longitude":51.183884,"destinations":[{"item":"India","width":500,"template":{},"series":{},"latitude":20.593684,"longitude":78.96288}]},{"title":"Saudi Arabia","latitude":23.885942,"longitude":45.079162,"destinations":[{"item":"India","width":462,"template":{},"series":{},"latitude":20.593684,"longitude":78.96288},{"item":"Korea Republic","width":676,"template":{},"series":{},"latitude":35.907757,"longitude":127.766922},{"item":"Taiwan","width":274,"template":{},"series":{},"latitude":23.69781,"longitude":120.960515}]},{"title":"Iran","latitude":32.427908,"longitude":53.688046,"destinations":[{"item":"India","width":742,"template":{},"series":{},"latitude":20.593684,"longitude":78.96288}]},{"title":"Australia","latitude":-25.274398,"longitude":133.775136,"destinations":[{"item":"Taiwan","width":160,"template":{},"series":{},"latitude":23.69781,"longitude":120.960515}]},{"title":"Indonesia","latitude":-0.789275,"longitude":113.921327,"destinations":[{"item":"Korea Republic","width":180,"template":{},"series":{},"latitude":35.907757,"longitude":127.766922},{"item":"Japan","width":162,"template":{},"series":{},"latitude":36.204824,"longitude":138.252924},{"item":"Taiwan","width":0,"template":{},"series":{},"latitude":23.69781,"longitude":120.960515},{"item":"China","width":257,"template":{},"series":{},"latitude":35.86166,"longitude":104.195397}]}]},{"item":"DAP","color":"#2c86c7","flights":[{"title":"Russia","latitude":61.52401,"longitude":105.318756,"destinations":[{"item":"West Europe","width":333,"template":{},"series":{},"latitude":55.378051,"longitude":-3.435973},{"item":"India","width":146,"template":{},"series":{},"latitude":20.593684,"longitude":78.96288}]},{"title":"Lithuania","latitude":55.169438,"longitude":23.881275,"destinations":[{"item":"West Europe","width":552,"template":{},"series":{},"latitude":55.378051,"longitude":-3.435973}]},{"title":"USA","latitude":37.09024,"longitude":-95.712891,"destinations":[{"item":"Brazil","width":189,"template":{},"series":{},"latitude":-14.235004,"longitude":-51.92528},{"item":"India","width":557,"template":{},"series":{},"latitude":20.593684,"longitude":78.96288}]},{"title":"Morocco","latitude":31.791702,"longitude":-7.09262,"destinations":[{"item":"West Europe","width":593,"template":{},"series":{},"latitude":55.378051,"longitude":-3.435973},{"item":"USA","width":509,"template":{},"series":{},"latitude":37.09024,"longitude":-95.712891}]},{"title":"Tunisia","latitude":33.886917,"longitude":9.537499,"destinations":[{"item":"West Europe","width":246,"template":{},"series":{},"latitude":55.378051,"longitude":-3.435973}]},{"title":"Saudi Arabia","latitude":23.885942,"longitude":45.079162,"destinations":[{"item":"India","width":1215,"template":{},"series":{},"latitude":20.593684,"longitude":78.96288},{"item":"Kenya","width":261,"template":{},"series":{},"latitude":-0.023559,"longitude":37.906193},{"item":"Bangladesh","width":454,"template":{},"series":{},"latitude":23.684994,"longitude":90.356331},{"item":"Pakistan","width":300,"template":{},"series":{},"latitude":30.375321,"longitude":69.345116}]},{"title":"Australia","latitude":-25.274398,"longitude":133.775136,"destinations":[{"item":"Pakistan","width":261,"template":{},"series":{},"latitude":30.375321,"longitude":69.345116}]},{"title":"China","latitude":35.86166,"longitude":104.195397,"destinations":[{"item":"USA","width":0,"template":{},"series":{},"latitude":37.09024,"longitude":-95.712891},{"item":"Pakistan","width":1126,"template":{},"series":{},"latitude":30.375321,"longitude":69.345116},{"item":"Indonesia","width":357,"template":{},"series":{},"latitude":-0.789275,"longitude":113.921327},{"item":"Viet Nam","width":765,"template":{},"series":{},"latitude":14.058324,"longitude":108.277199},{"item":"Thailand","width":478,"template":{},"series":{},"latitude":15.870032,"longitude":100.992541},{"item":"Bangladesh","width":300,"template":{},"series":{},"latitude":23.684994,"longitude":90.356331},{"item":"India","width":2011,"template":{},"series":{},"latitude":20.593684,"longitude":78.96288}]}]},{"item":"MAP","color":"#6a9078","flights":[{"title":"Russia","latitude":61.52401,"longitude":105.318756,"destinations":[{"item":"Brazil","width":696,"template":{},"series":{},"latitude":-14.235004,"longitude":-51.92528},{"item":"USA","width":290,"template":{},"series":{},"latitude":37.09024,"longitude":-95.712891}]},{"title":"USA","latitude":37.09024,"longitude":-95.712891,"destinations":[{"item":"Canada","width":583,"template":{},"series":{},"latitude":56.130366,"longitude":-106.346771},{"item":"Brazil","width":710,"template":{},"series":{},"latitude":-14.235004,"longitude":-51.92528},{"item":"Australia","width":337,"template":{},"series":{},"latitude":-25.274398,"longitude":133.775136}]},{"title":"Morocco","latitude":31.791702,"longitude":-7.09262,"destinations":[{"item":"USA","width":760,"template":{},"series":{},"latitude":37.09024,"longitude":-95.712891},{"item":"Brazil","width":1219,"template":{},"series":{},"latitude":-14.235004,"longitude":-51.92528},{"item":"Ethiopia","width":633,"template":{},"series":{},"latitude":9.145,"longitude":40.489673}]},{"title":"China","latitude":35.86166,"longitude":104.195397,"destinations":[{"item":"Australia","width":387,"template":{},"series":{},"latitude":-25.274398,"longitude":133.775136},{"item":"Brazil","width":890,"template":{},"series":{},"latitude":-14.235004,"longitude":-51.92528}]}]},{"item":"Phosphate","color":"#ef9227","flights":[{"title":"Russia","latitude":61.52401,"longitude":105.318756,"destinations":[{"item":"West Europe","width":1172,"template":{},"series":{},"latitude":55.378051,"longitude":-3.435973},{"item":"Belarus","width":525,"template":{},"series":{},"latitude":53.709807,"longitude":27.953389},{"item":"Lithuania","width":952,"template":{},"series":{},"latitude":55.169438,"longitude":23.881275}]},{"title":"Kazakhstan","latitude":48.019573,"longitude":66.923684,"destinations":[{"item":"Russia","width":542,"template":{},"series":{},"latitude":61.52401,"longitude":105.318756}]},{"title":"Algeria","latitude":28.033886,"longitude":1.659626,"destinations":[{"item":"West Europe","width":232,"template":{},"series":{},"latitude":55.378051,"longitude":-3.435973},{"item":"Poland","width":380,"template":{},"series":{},"latitude":51.919438,"longitude":19.145136},{"item":"Brazil","width":0,"template":{},"series":{},"latitude":-14.235004,"longitude":-51.92528},{"item":"Philippines","width":0,"template":{},"series":{},"latitude":12.879721,"longitude":121.774017},{"item":"India","width":0,"template":{},"series":{},"latitude":20.593684,"longitude":78.96288}]},{"title":"Egypt","latitude":26.820553,"longitude":30.802498,"destinations":[{"item":"Poland","width":285,"template":{},"series":{},"latitude":51.919438,"longitude":19.145136},{"item":"India","width":2000,"template":{},"series":{},"latitude":20.593684,"longitude":78.96288},{"item":"Indonesia","width":339,"template":{},"series":{},"latitude":-0.789275,"longitude":113.921327},{"item":"Malaysia","width":292,"template":{},"series":{},"latitude":4.210484,"longitude":101.975766}]},{"title":"Morocco","latitude":31.791702,"longitude":-7.09262,"destinations":[{"item":"West Europe","width":1003,"template":{},"series":{},"latitude":55.378051,"longitude":-3.435973},{"item":"Bulgaria","width":541,"template":{},"series":{},"latitude":42.733883,"longitude":25.48583},{"item":"Poland","width":696,"template":{},"series":{},"latitude":51.919438,"longitude":19.145136},{"item":"Belarus","width":0,"template":{},"series":{},"latitude":53.709807,"longitude":27.953389},{"item":"Lithuania","width":0,"template":{},"series":{},"latitude":55.169438,"longitude":23.881275},{"item":"Canada","width":830,"template":{},"series":{},"latitude":56.130366,"longitude":-106.346771},{"item":"USA","width":867,"template":{},"series":{},"latitude":37.09024,"longitude":-95.712891},{"item":"Brazil","width":977,"template":{},"series":{},"latitude":-14.235004,"longitude":-51.92528},{"item":"Mexico","width":1334,"template":{},"series":{},"latitude":23.634501,"longitude":-102.552784},{"item":"Turkey","width":752,"template":{},"series":{},"latitude":38.963745,"longitude":35.243322},{"item":"India","width":1586,"template":{},"series":{},"latitude":20.593684,"longitude":78.96288},{"item":"Pakistan","width":378,"template":{},"series":{},"latitude":30.375321,"longitude":69.345116},{"item":"Indonesia","width":535,"template":{},"series":{},"latitude":-0.789275,"longitude":113.921327},{"item":"New Zealand","width":327,"template":{},"series":{},"latitude":-40.900557,"longitude":174.885971}]},{"title":"Peru","latitude":-9.189967,"longitude":-75.015152,"destinations":[{"item":"USA","width":1660,"template":{},"series":{},"latitude":37.09024,"longitude":-95.712891},{"item":"Brazil","width":785,"template":{},"series":{},"latitude":-14.235004,"longitude":-51.92528},{"item":"India","width":452,"template":{},"series":{},"latitude":20.593684,"longitude":78.96288}]},{"title":"Togo","latitude":8.619543,"longitude":0.824782,"destinations":[{"item":"India","width":445,"template":{},"series":{},"latitude":20.593684,"longitude":78.96288}]},{"title":"Tunisia","latitude":33.886917,"longitude":9.537499,"destinations":[{"item":"Poland","width":0,"template":{},"series":{},"latitude":51.919438,"longitude":19.145136}]},{"title":"Israel","latitude":31.046051,"longitude":34.851612,"destinations":[{"item":"West Europe","width":384,"template":{},"series":{},"latitude":55.378051,"longitude":-3.435973},{"item":"Turkey","width":266,"template":{},"series":{},"latitude":38.963745,"longitude":35.243322},{"item":"India","width":0,"template":{},"series":{},"latitude":20.593684,"longitude":78.96288}]},{"title":"Jordan","latitude":30.585164,"longitude":36.238414,"destinations":[{"item":"Turkey","width":0,"template":{},"series":{},"latitude":38.963745,"longitude":35.243322},{"item":"India","width":3080,"template":{},"series":{},"latitude":20.593684,"longitude":78.96288},{"item":"Indonesia","width":1480,"template":{},"series":{},"latitude":-0.789275,"longitude":113.921327}]},{"title":"Syria","latitude":34.802075,"longitude":38.996815,"destinations":[{"item":"West Europe","width":0,"template":{},"series":{},"latitude":55.378051,"longitude":-3.435973},{"item":"Lebanon","width":0,"template":{},"series":{},"latitude":33.854721,"longitude":35.862285},{"item":"Turkey","width":0,"template":{},"series":{},"latitude":38.963745,"longitude":35.243322},{"item":"Ukraine","width":0,"template":{},"series":{},"latitude":48.379433,"longitude":31.16558},{"item":"Bulgaria","width":0,"template":{},"series":{},"latitude":42.733883,"longitude":25.48583},{"item":"Poland","width":0,"template":{},"series":{},"latitude":51.919438,"longitude":19.145136}]},{"title":"Christmas Islands","latitude":-10.447525,"longitude":105.690449,"destinations":[{"item":"Malaysia","width":305,"template":{},"series":{},"latitude":4.210484,"longitude":101.975766},{"item":"Indonesia","width":310,"template":{},"series":{},"latitude":-0.789275,"longitude":113.921327}]},{"title":"South Africa","latitude":-30.559482,"longitude":22.937506,"destinations":[{"item":"Lithuania","width":454,"template":{},"series":{},"latitude":55.169438,"longitude":23.881275}]},{"title":"China","latitude":35.86166,"longitude":104.195397,"destinations":[{"item":"Korea Republic","width":323,"template":{},"series":{},"latitude":35.907757,"longitude":127.766922}]}]},{"item":"Potash","color":"#d36d75","flights":[{"title":"Russia","latitude":61.52401,"longitude":105.318756,"destinations":[{"item":"West Europe","width":711,"template":{},"series":{},"latitude":55.378051,"longitude":-3.435973},{"item":"Poland","width":476,"template":{},"series":{},"latitude":51.919438,"longitude":19.145136},{"item":"USA","width":843,"template":{},"series":{},"latitude":37.09024,"longitude":-95.712891},{"item":"Brazil","width":2286,"template":{},"series":{},"latitude":-14.235004,"longitude":-51.92528},{"item":"Bangladesh","width":264,"template":{},"series":{},"latitude":23.684994,"longitude":90.356331},{"item":"India","width":861,"template":{},"series":{},"latitude":20.593684,"longitude":78.96288},{"item":"Indonesia","width":844,"template":{},"series":{},"latitude":-0.789275,"longitude":113.921327},{"item":"Malaysia","width":556,"template":{},"series":{},"latitude":4.210484,"longitude":101.975766},{"item":"Viet Nam","width":300,"template":{},"series":{},"latitude":14.058324,"longitude":108.277199},{"item":"China","width":1910,"template":{},"series":{},"latitude":35.86166,"longitude":104.195397}]},{"title":"Belarus","latitude":53.709807,"longitude":27.953389,"destinations":[{"item":"West Europe","width":868,"template":{},"series":{},"latitude":55.378051,"longitude":-3.435973},{"item":"Poland","width":315,"template":{},"series":{},"latitude":51.919438,"longitude":19.145136},{"item":"Russia","width":312,"template":{},"series":{},"latitude":61.52401,"longitude":105.318756},{"item":"USA","width":674,"template":{},"series":{},"latitude":37.09024,"longitude":-95.712891},{"item":"Brazil","width":1845,"template":{},"series":{},"latitude":-14.235004,"longitude":-51.92528},{"item":"Morocco","width":215,"template":{},"series":{},"latitude":31.791702,"longitude":-7.09262},{"item":"Bangladesh","width":428,"template":{},"series":{},"latitude":23.684994,"longitude":90.356331},{"item":"India","width":1221,"template":{},"series":{},"latitude":20.593684,"longitude":78.96288},{"item":"Indonesia","width":641,"template":{},"series":{},"latitude":-0.789275,"longitude":113.921327},{"item":"Malaysia","width":625,"template":{},"series":{},"latitude":4.210484,"longitude":101.975766},{"item":"Viet Nam","width":264,"template":{},"series":{},"latitude":14.058324,"longitude":108.277199},{"item":"Thailand","width":207,"template":{},"series":{},"latitude":15.870032,"longitude":100.992541},{"item":"China","width":1232,"template":{},"series":{},"latitude":35.86166,"longitude":104.195397}]},{"title":"Germany","latitude":51.165691,"longitude":10.451526,"destinations":[{"item":"West Europe","width":1550,"template":{},"series":{},"latitude":55.378051,"longitude":-3.435973},{"item":"Brazil","width":1004,"template":{},"series":{},"latitude":-14.235004,"longitude":-51.92528},{"item":"India","width":0,"template":{},"series":{},"latitude":20.593684,"longitude":78.96288},{"item":"China","width":0,"template":{},"series":{},"latitude":35.86166,"longitude":104.195397},{"item":"Indonesia","width":0,"template":{},"series":{},"latitude":-0.789275,"longitude":113.921327},{"item":"Malaysia","width":0,"template":{},"series":{},"latitude":4.210484,"longitude":101.975766}]},{"title":"Israel","latitude":31.046051,"longitude":34.851612,"destinations":[{"item":"West Europe","width":897,"template":{},"series":{},"latitude":55.378051,"longitude":-3.435973},{"item":"USA","width":246,"template":{},"series":{},"latitude":37.09024,"longitude":-95.712891},{"item":"Brazil","width":1305,"template":{},"series":{},"latitude":-14.235004,"longitude":-51.92528},{"item":"India","width":724,"template":{},"series":{},"latitude":20.593684,"longitude":78.96288},{"item":"China","width":861,"template":{},"series":{},"latitude":35.86166,"longitude":104.195397}]},{"title":"Jordan","latitude":30.585164,"longitude":36.238414,"destinations":[{"item":"India","width":511,"template":{},"series":{},"latitude":20.593684,"longitude":78.96288},{"item":"China","width":617,"template":{},"series":{},"latitude":35.86166,"longitude":104.195397},{"item":"Indonesia","width":300,"template":{},"series":{},"latitude":-0.789275,"longitude":113.921327},{"item":"Malaysia","width":0,"template":{},"series":{},"latitude":4.210484,"longitude":101.975766}]},{"title":"Chile","latitude":-35.675147,"longitude":-71.542969,"destinations":[{"item":"West Europe","width":0,"template":{},"series":{},"latitude":55.378051,"longitude":-3.435973},{"item":"USA","width":0,"template":{},"series":{},"latitude":37.09024,"longitude":-95.712891},{"item":"Brazil","width":500,"template":{},"series":{},"latitude":-14.235004,"longitude":-51.92528}]},{"title":"USA","latitude":37.09024,"longitude":-95.712891,"destinations":[{"item":"Brazil","width":0,"template":{},"series":{},"latitude":-14.235004,"longitude":-51.92528}]},{"title":"Canada","latitude":56.130366,"longitude":-106.346771,"destinations":[{"item":"West Europe","width":346,"template":{},"series":{},"latitude":55.378051,"longitude":-3.435973},{"item":"USA","width":7404,"template":{},"series":{},"latitude":37.09024,"longitude":-95.712891},{"item":"Brazil","width":2713,"template":{},"series":{},"latitude":-14.235004,"longitude":-51.92528},{"item":"Colombia","width":0,"template":{},"series":{},"latitude":4.570868,"longitude":-74.297333},{"item":"Bangladesh","width":0,"template":{},"series":{},"latitude":23.684994,"longitude":90.356331},{"item":"India","width":1364,"template":{},"series":{},"latitude":20.593684,"longitude":78.96288},{"item":"Indonesia","width":1203,"template":{},"series":{},"latitude":-0.789275,"longitude":113.921327},{"item":"Japan","width":383,"template":{},"series":{},"latitude":36.204824,"longitude":138.252924},{"item":"Korea Republic","width":405,"template":{},"series":{},"latitude":35.907757,"longitude":127.766922},{"item":"Malaysia","width":661,"template":{},"series":{},"latitude":4.210484,"longitude":101.975766},{"item":"Viet Nam","width":0,"template":{},"series":{},"latitude":14.058324,"longitude":108.277199},{"item":"Taiwan","width":0,"template":{},"series":{},"latitude":23.69781,"longitude":120.960515},{"item":"Thailand","width":365,"template":{},"series":{},"latitude":15.870032,"longitude":100.992541},{"item":"China","width":2229,"template":{},"series":{},"latitude":35.86166,"longitude":104.195397},{"item":"Australia","width":361,"template":{},"series":{},"latitude":-25.274398,"longitude":133.775136}]}]},{"item":"Urea","color":"#c59d2d","flights":[{"title":"Russia","latitude":61.52401,"longitude":105.318756,"destinations":[{"item":"Turkey","width":333,"template":{},"series":{},"latitude":38.963745,"longitude":35.243322},{"item":"USA","width":304,"template":{},"series":{},"latitude":37.09024,"longitude":-95.712891},{"item":"Brazil","width":1213,"template":{},"series":{},"latitude":-14.235004,"longitude":-51.92528},{"item":"Mexico","width":541,"template":{},"series":{},"latitude":23.634501,"longitude":-102.552784},{"item":"Peru","width":193,"template":{},"series":{},"latitude":-9.189967,"longitude":-75.015152},{"item":"India","width":0,"template":{},"series":{},"latitude":20.593684,"longitude":78.96288},{"item":"West Europe","width":996,"template":{},"series":{},"latitude":55.378051,"longitude":-3.435973},{"item":"Ukraine","width":337,"template":{},"series":{},"latitude":48.379433,"longitude":31.16558},{"item":"Poland","width":357,"template":{},"series":{},"latitude":51.919438,"longitude":19.145136}]},{"title":"Nether lands","latitude":52.132633,"longitude":5.291266,"destinations":[{"item":"West Europe","width":587,"template":{},"series":{},"latitude":55.378051,"longitude":-3.435973}]},{"title":"Germany","latitude":51.165691,"longitude":10.451526,"destinations":[{"item":"West Europe","width":460,"template":{},"series":{},"latitude":55.378051,"longitude":-3.435973}]},{"title":"Ukraine","latitude":48.379433,"longitude":31.16558,"destinations":[{"item":"West Europe","width":0,"template":{},"series":{},"latitude":55.378051,"longitude":-3.435973},{"item":"Brazil","width":0,"template":{},"series":{},"latitude":-14.235004,"longitude":-51.92528},{"item":"Ethiopia","width":0,"template":{},"series":{},"latitude":9.145,"longitude":40.489673},{"item":"Turkey","width":152,"template":{},"series":{},"latitude":38.963745,"longitude":35.243322},{"item":"India","width":0,"template":{},"series":{},"latitude":20.593684,"longitude":78.96288},{"item":"Italy","width":0,"template":{},"series":{},"latitude":41.87194,"longitude":12.56738}]},{"title":"Romania","latitude":45.943161,"longitude":24.96676,"destinations":[{"item":"Turkey","width":0,"template":{},"series":{},"latitude":38.963745,"longitude":35.243322}]},{"title":"Canada","latitude":56.130366,"longitude":-106.346771,"destinations":[{"item":"USA","width":1067,"template":{},"series":{},"latitude":37.09024,"longitude":-95.712891}]},{"title":"USA","latitude":37.09024,"longitude":-95.712891,"destinations":[{"item":"Canada","width":391,"template":{},"series":{},"latitude":56.130366,"longitude":-106.346771},{"item":"Chile","width":228,"template":{},"series":{},"latitude":-35.675147,"longitude":-71.542969}]},{"title":"Trinidad and Tobago","latitude":10.691803,"longitude":-61.222503,"destinations":[{"item":"USA","width":261,"template":{},"series":{},"latitude":37.09024,"longitude":-95.712891}]},{"title":"Venezuela","latitude":6.42375,"longitude":-66.58973,"destinations":[{"item":"USA","width":0,"template":{},"series":{},"latitude":37.09024,"longitude":-95.712891},{"item":"Columbia","width":259,"template":{},"series":{},"latitude":39.2037,"longitude":76.861}]},{"title":"Algeria","latitude":28.033886,"longitude":1.659626,"destinations":[{"item":"West Europe","width":661,"template":{},"series":{},"latitude":55.378051,"longitude":-3.435973},{"item":"USA","width":135,"template":{},"series":{},"latitude":37.09024,"longitude":-95.712891},{"item":"Brazil","width":443,"template":{},"series":{},"latitude":-14.235004,"longitude":-51.92528}]},{"title":"Egypt","latitude":26.820553,"longitude":30.802498,"destinations":[{"item":"West Europe","width":1922,"template":{},"series":{},"latitude":55.378051,"longitude":-3.435973},{"item":"USA","width":257,"template":{},"series":{},"latitude":37.09024,"longitude":-95.712891},{"item":"Brazil","width":0,"template":{},"series":{},"latitude":-14.235004,"longitude":-51.92528},{"item":"Turkey","width":1535,"template":{},"series":{},"latitude":38.963745,"longitude":35.243322}]},{"title":"Libya","latitude":26.3351,"longitude":17.228331,"destinations":[{"item":"West Europe","width":0,"template":{},"series":{},"latitude":55.378051,"longitude":-3.435973}]},{"title":"Nigeria","latitude":9.081999,"longitude":8.675277,"destinations":[{"item":"Brazil","width":528,"template":{},"series":{},"latitude":-14.235004,"longitude":-51.92528}]},{"title":"UAE","latitude":23.424076,"longitude":53.847818,"destinations":[{"item":"Bangladesh","width":217,"template":{},"series":{},"latitude":23.684994,"longitude":90.356331},{"item":"USA","width":537,"template":{},"series":{},"latitude":37.09024,"longitude":-95.712891},{"item":"Brazil","width":498,"template":{},"series":{},"latitude":-14.235004,"longitude":-51.92528},{"item":"South Africa","width":367,"template":{},"series":{},"latitude":-30.559482,"longitude":22.937506}]},{"title":"Bahrain","latitude":25.930414,"longitude":50.637772,"destinations":[{"item":"USA","width":117,"template":{},"series":{},"latitude":37.09024,"longitude":-95.712891},{"item":"Brazil","width":120,"template":{},"series":{},"latitude":-14.235004,"longitude":-51.92528}]},{"title":"Kuwait","latitude":29.31166,"longitude":47.481766,"destinations":[{"item":"USA","width":220,"template":{},"series":{},"latitude":37.09024,"longitude":-95.712891},{"item":"Brazil","width":415,"template":{},"series":{},"latitude":-14.235004,"longitude":-51.92528}]},{"title":"Oman","latitude":21.512583,"longitude":55.923255,"destinations":[{"item":"India","width":2430,"template":{},"series":{},"latitude":20.593684,"longitude":78.96288},{"item":"USA","width":113,"template":{},"series":{},"latitude":37.09024,"longitude":-95.712891},{"item":"Brazil","width":420,"template":{},"series":{},"latitude":-14.235004,"longitude":-51.92528}]},{"title":"Iran","latitude":32.427908,"longitude":53.688046,"destinations":[{"item":"Brazil","width":0,"template":{},"series":{},"latitude":-14.235004,"longitude":-51.92528},{"item":"Mexico","width":280,"template":{},"series":{},"latitude":23.634501,"longitude":-102.552784},{"item":"Turkey","width":400,"template":{},"series":{},"latitude":38.963745,"longitude":35.243322},{"item":"India","width":1711,"template":{},"series":{},"latitude":20.593684,"longitude":78.96288}]},{"title":"Qatar","latitude":25.354826,"longitude":51.183884,"destinations":[{"item":"Brazil","width":1330,"template":{},"series":{},"latitude":-14.235004,"longitude":-51.92528},{"item":"Bangladesh","width":543,"template":{},"series":{},"latitude":23.684994,"longitude":90.356331},{"item":"India","width":224,"template":{},"series":{},"latitude":20.593684,"longitude":78.96288},{"item":"Pakistan","width":0,"template":{},"series":{},"latitude":30.375321,"longitude":69.345116},{"item":"South Africa","width":500,"template":{},"series":{},"latitude":-30.559482,"longitude":22.937506},{"item":"USA","width":1348,"template":{},"series":{},"latitude":37.09024,"longitude":-95.712891},{"item":"Thailand","width":722,"template":{},"series":{},"latitude":15.870032,"longitude":100.992541},{"item":"Korea Republic","width":115,"template":{},"series":{},"latitude":35.907757,"longitude":127.766922},{"item":"Philippines","width":254,"template":{},"series":{},"latitude":12.879721,"longitude":121.774017},{"item":"Australia","width":502,"template":{},"series":{},"latitude":-25.274398,"longitude":133.775136}]},{"title":"Saudi Arabia","latitude":23.885942,"longitude":45.079162,"destinations":[{"item":"New Zealand","width":0,"template":{},"series":{},"latitude":-40.900557,"longitude":174.885971},{"item":"USA","width":541,"template":{},"series":{},"latitude":37.09024,"longitude":-95.712891},{"item":"Brazil","width":215,"template":{},"series":{},"latitude":-14.235004,"longitude":-51.92528},{"item":"South Africa","width":313,"template":{},"series":{},"latitude":-30.559482,"longitude":22.937506},{"item":"Pakistan","width":0,"template":{},"series":{},"latitude":30.375321,"longitude":69.345116},{"item":"India","width":0,"template":{},"series":{},"latitude":20.593684,"longitude":78.96288},{"item":"Bangladesh","width":352,"template":{},"series":{},"latitude":23.684994,"longitude":90.356331},{"item":"Australia","width":515,"template":{},"series":{},"latitude":-25.274398,"longitude":133.775136},{"item":"Thailand","width":1072,"template":{},"series":{},"latitude":15.870032,"longitude":100.992541}]},{"title":"Malaysia","latitude":4.210484,"longitude":101.975766,"destinations":[{"item":"Thailand","width":450,"template":{},"series":{},"latitude":15.870032,"longitude":100.992541}]},{"title":"Indonesia","latitude":-0.789275,"longitude":113.921327,"destinations":[{"item":"Philippines","width":313,"template":{},"series":{},"latitude":12.879721,"longitude":121.774017},{"item":"USA","width":0,"template":{},"series":{},"latitude":37.09024,"longitude":-95.712891},{"item":"Australia","width":0,"template":{},"series":{},"latitude":-25.274398,"longitude":133.775136}]},{"title":"China","latitude":35.86166,"longitude":104.195397,"destinations":[{"item":"USA","width":222,"template":{},"series":{},"latitude":37.09024,"longitude":-95.712891},{"item":"Mexico","width":500,"template":{},"series":{},"latitude":23.634501,"longitude":-102.552784},{"item":"Chile","width":0,"template":{},"series":{},"latitude":-35.675147,"longitude":-71.542969},{"item":"Colombia","width":0,"template":{},"series":{},"latitude":4.570868,"longitude":-74.297333},{"item":"Ethiopia","width":146,"template":{},"series":{},"latitude":9.145,"longitude":40.489673},{"item":"Bangladesh","width":0,"template":{},"series":{},"latitude":23.684994,"longitude":90.356331},{"item":"India","width":1017,"template":{},"series":{},"latitude":20.593684,"longitude":78.96288},{"item":"Pakistan","width":0,"template":{},"series":{},"latitude":30.375321,"longitude":69.345116},{"item":"Indonesia","width":0,"template":{},"series":{},"latitude":-0.789275,"longitude":113.921327},{"item":"Korea Republic","width":641,"template":{},"series":{},"latitude":35.907757,"longitude":127.766922},{"item":"Taiwan","width":0,"template":{},"series":{},"latitude":23.69781,"longitude":120.960515},{"item":"Malaysia","width":120,"template":{},"series":{},"latitude":4.210484,"longitude":101.975766},{"item":"Myanmar","width":287,"template":{},"series":{},"latitude":21.913965,"longitude":95.956223},{"item":"Philippines","width":0,"template":{},"series":{},"latitude":12.879721,"longitude":121.774017},{"item":"Viet Nam","width":0,"template":{},"series":{},"latitude":14.058324,"longitude":108.277199},{"item":"Australia","width":261,"template":{},"series":{},"latitude":-25.274398,"longitude":133.775136}]}]},{"item":"Sulphur","color":"#d89db7","flights":[{"title":"USA","latitude":37.09024,"longitude":-95.712891,"destinations":[{"item":"Brazil","width":710,"template":{},"series":{},"latitude":-14.235004,"longitude":-51.92528},{"item":"Mexico","width":450,"template":{},"series":{},"latitude":23.634501,"longitude":-102.552784},{"item":"Morocco","width":346,"template":{},"series":{},"latitude":31.791702,"longitude":-7.09262},{"item":"China","width":319,"template":{},"series":{},"latitude":35.86166,"longitude":104.195397}]},{"title":"Canada","latitude":56.130366,"longitude":-106.346771,"destinations":[{"item":"USA","width":1376,"template":{},"series":{},"latitude":37.09024,"longitude":-95.712891},{"item":"China","width":1012,"template":{},"series":{},"latitude":35.86166,"longitude":104.195397},{"item":"Australia","width":609,"template":{},"series":{},"latitude":-25.274398,"longitude":133.775136},{"item":"Mexico","width":312,"template":{},"series":{},"latitude":23.634501,"longitude":-102.552784}]},{"title":"Russia","latitude":61.52401,"longitude":105.318756,"destinations":[{"item":"Morocco","width":1215,"template":{},"series":{},"latitude":31.791702,"longitude":-7.09262},{"item":"Brazil","width":488,"template":{},"series":{},"latitude":-14.235004,"longitude":-51.92528},{"item":"Tunisia","width":414,"template":{},"series":{},"latitude":33.886917,"longitude":9.537499}]},{"title":"Kazakhstan","latitude":48.019573,"longitude":66.923684,"destinations":[{"item":"Morocco","width":709,"template":{},"series":{},"latitude":31.791702,"longitude":-7.09262},{"item":"Brazil","width":300,"template":{},"series":{},"latitude":-14.235004,"longitude":-51.92528}]},{"title":"India","latitude":20.593684,"longitude":78.96288,"destinations":[{"item":"China","width":507,"template":{},"series":{},"latitude":35.86166,"longitude":104.195397}]},{"title":"UAE","latitude":23.424076,"longitude":53.847818,"destinations":[{"item":"China","width":1797,"template":{},"series":{},"latitude":35.86166,"longitude":104.195397},{"item":"Morocco","width":2138,"template":{},"series":{},"latitude":31.791702,"longitude":-7.09262}]},{"title":"Saudi Arabia","latitude":23.885942,"longitude":45.079162,"destinations":[{"item":"China","width":2327,"template":{},"series":{},"latitude":35.86166,"longitude":104.195397},{"item":"India","width":393,"template":{},"series":{},"latitude":20.593684,"longitude":78.96288},{"item":"Morocco","width":415,"template":{},"series":{},"latitude":31.791702,"longitude":-7.09262}]},{"title":"Qatar","latitude":25.354826,"longitude":51.183884,"destinations":[{"item":"China","width":975,"template":{},"series":{},"latitude":35.86166,"longitude":104.195397},{"item":"India","width":338,"template":{},"series":{},"latitude":20.593684,"longitude":78.96288}]},{"title":"Iran","latitude":32.427908,"longitude":53.688046,"destinations":[{"item":"China","width":1268,"template":{},"series":{},"latitude":35.86166,"longitude":104.195397}]},{"title":"South Korea","latitude":35.907757,"longitude":127.766922,"destinations":[{"item":"China","width":1069,"template":{},"series":{},"latitude":35.86166,"longitude":104.195397}]},{"title":"Japan","latitude":36.204824,"longitude":138.252924,"destinations":[{"item":"China","width":1037,"template":{},"series":{},"latitude":35.86166,"longitude":104.195397}]},{"title":"Poland","latitude":51.919438,"longitude":19.145136,"destinations":[{"item":"Morocco","width":344,"template":{},"series":{},"latitude":31.791702,"longitude":-7.09262}]}]},{"item":"SulphurAcid","color":"#e41d2b","flights":[{"title":"Japan","latitude":36.204824,"longitude":138.252924,"destinations":[{"item":"Philippines","width":1013,"template":{},"series":{},"latitude":12.879721,"longitude":121.774017}]},{"title":"South Korea","latitude":35.907757,"longitude":127.766922,"destinations":[{"item":"China","width":879,"template":{},"series":{},"latitude":35.86166,"longitude":104.195397},{"item":"India","width":416,"template":{},"series":{},"latitude":20.593684,"longitude":78.96288},{"item":"Thailand","width":397,"template":{},"series":{},"latitude":15.870032,"longitude":100.992541}]},{"title":"Bulgaria","latitude":42.733883,"longitude":25.48583,"destinations":[{"item":"Turkey","width":591,"template":{},"series":{},"latitude":38.963745,"longitude":35.243322}]},{"title":"Spain","latitude":40.463667,"longitude":-3.74922,"destinations":[{"item":"Morocco","width":341,"template":{},"series":{},"latitude":31.791702,"longitude":-7.09262}]},{"title":"Mexico","latitude":23.634501,"longitude":-102.552784,"destinations":[{"item":"USA","width":537,"template":{},"series":{},"latitude":37.09024,"longitude":-95.712891},{"item":"Chile","width":314,"template":{},"series":{},"latitude":-35.675147,"longitude":-71.542969}]},{"title":"Canada","latitude":56.130366,"longitude":-106.346771,"destinations":[{"item":"USA","width":1902,"template":{},"series":{},"latitude":37.09024,"longitude":-95.712891}]},{"title":"Peru","latitude":-9.189967,"longitude":-75.015152,"destinations":[{"item":"Chile","width":1233,"template":{},"series":{},"latitude":-35.675147,"longitude":-71.542969}]},{"title":"","latitude":null,"longitude":null,"destinationss":[]}]}]